04/27/2018,09:01:23,13 CPM,0.12 uSV,5028 mV
$GPRMC,055324.000,A,4212.5682,N,02504.8904,E,18.28,124.37,270418,,,A*59

04/27/2018,09:02:23,15 CPM,0.12 uSV,5028 mV
$GPRMC,055424.000,A,4212.5513,N,02504.9215,E,0.72,148.33,270418,,,A*67

04/27/2018,09:03:23,13 CPM,0.12 uSV,5028 mV
$GPRMC,055524.000,A,4212.5507,N,02504.9219,E,1.52,163.59,270418,,,A*69

04/27/2018,09:04:23,21 CPM,0.13 uSV,5051 mV
$GPRMC,055624.000,A,4212.5492,N,02504.9231,E,1.00,161.27,270418,,,A*61

04/27/2018,09:05:23,14 CPM,0.13 uSV,5028 mV
$GPRMC,055724.000,A,4212.5508,N,02504.9228,E,1.02,161.63,270418,,,A*68

04/27/2018,09:06:23,15 CPM,0.13 uSV,5028 mV
$GPRMC,055824.000,A,4212.5516,N,02504.9237,E,0.30,176.03,270418,,,A*66

04/27/2018,09:07:23,17 CPM,0.13 uSV,5028 mV
$GPRMC,055924.000,A,4212.5521,N,02504.9236,E,0.21,189.97,270418,,,A*6F

04/27/2018,09:08:23,19 CPM,0.13 uSV,5028 mV
$GPRMC,060024.000,A,4212.5532,N,02504.9189,E,0.16,17.96,270418,,,A*56

04/27/2018,09:09:23,21 CPM,0.13 uSV,5051 mV
$GPRMC,060124.000,A,4212.5528,N,02504.9188,E,0.25,17.96,270418,,,A*5D

04/27/2018,09:10:23,14 CPM,0.14 uSV,5051 mV
$GPRMC,060224.000,A,4212.5550,N,02504.9156,E,0.14,233.39,270418,,,A*61

04/27/2018,09:11:23,15 CPM,0.14 uSV,5028 mV
$GPRMC,060323.000,A,4212.5554,N,02504.9147,E,0.11,233.39,270418,,,A*66

04/27/2018,09:12:23,16 CPM,0.14 uSV,5028 mV
$GPRMC,060424.000,A,4212.5550,N,02504.9154,E,0.02,48.50,270418,,,A*53

04/27/2018,09:13:23,15 CPM,0.14 uSV,5051 mV
$GPRMC,060524.000,A,4212.5550,N,02504.9153,E,0.01,48.50,270418,,,A*56

04/27/2018,09:14:23,19 CPM,0.14 uSV,5028 mV
$GPRMC,060624.000,A,4212.5550,N,02504.9153,E,0.01,48.50,270418,,,A*55

04/27/2018,09:15:23,9 CPM,0.14 uSV,5051 mV
$GPRMC,060724.000,A,4212.5549,N,02504.9152,E,0.01,48.50,270418,,,A*5D

04/27/2018,09:16:23,12 CPM,0.14 uSV,5051 mV
$GPRMC,060824.000,A,4212.5549,N,02504.9151,E,0.01,48.50,270418,,,A*51

04/27/2018,09:17:23,16 CPM,0.15 uSV,5028 mV
$GPRMC,060924.000,A,4212.5549,N,02504.9150,E,0.01,48.50,270418,,,A*51

04/27/2018,09:18:23,22 CPM,0.15 uSV,5028 mV
$GPRMC,061024.000,A,4212.5549,N,02504.9148,E,0.04,48.50,270418,,,A*55

04/27/2018,09:19:23,15 CPM,0.15 uSV,5051 mV
$GPRMC,061124.000,A,4212.5548,N,02504.9146,E,0.04,48.50,270418,,,A*5B

04/27/2018,09:20:23,16 CPM,0.15 uSV,5028 mV
$GPRMC,061224.000,A,4212.5548,N,02504.9143,E,0.03,48.50,270418,,,A*5A

04/27/2018,09:21:23,9 CPM,0.15 uSV,5051 mV
$GPRMC,061324.000,A,4212.5548,N,02504.9140,E,0.02,48.50,270418,,,A*59

04/27/2018,09:22:23,14 CPM,0.15 uSV,5028 mV
$GPRMC,061424.000,A,4212.5547,N,02504.9138,E,0.02,48.50,270418,,,A*5E

04/27/2018,09:23:23,11 CPM,0.15 uSV,5028 mV
$GPRMC,061524.000,A,4212.5547,N,02504.9139,E,0.01,48.50,270418,,,A*5D

04/27/2018,09:24:23,18 CPM,0.16 uSV,5028 mV
$GPRMC,061624.000,A,4212.5547,N,02504.9140,E,0.02,48.50,270418,,,A*53

04/27/2018,09:25:23,14 CPM,0.16 uSV,5028 mV
$GPRMC,061724.000,A,4212.5546,N,02504.9141,E,0.01,48.50,270418,,,A*51

04/27/2018,09:26:23,18 CPM,0.16 uSV,5051 mV
$GPRMC,061824.000,A,4212.5546,N,02504.9142,E,0.01,48.50,270418,,,A*5D

04/27/2018,09:27:23,11 CPM,0.16 uSV,5028 mV
$GPRMC,061924.000,A,4212.5546,N,02504.9142,E,0.00,48.50,270418,,,A*5D

04/27/2018,09:28:23,20 CPM,0.16 uSV,5028 mV
$GPRMC,062024.000,A,4212.5544,N,02504.9143,E,0.01,48.50,270418,,,A*55

04/27/2018,09:29:23,7 CPM,0.16 uSV,5028 mV
$GPRMC,062124.000,A,4212.5546,N,02504.9143,E,0.00,48.50,270418,,,A*57

04/27/2018,09:30:23,19 CPM,0.16 uSV,5051 mV
$GPRMC,062224.000,A,4212.5545,N,02504.9144,E,0.01,48.50,270418,,,A*51

04/27/2018,09:31:23,11 CPM,0.16 uSV,5051 mV
$GPRMC,062324.000,A,4212.5544,N,02504.9145,E,0.02,48.50,270418,,,A*53

04/27/2018,09:32:23,17 CPM,0.17 uSV,5051 mV
$GPRMC,062424.000,A,4212.5541,N,02504.9144,E,0.01,48.50,270418,,,A*53

04/27/2018,09:33:23,15 CPM,0.17 uSV,5028 mV
$GPRMC,062524.000,A,4212.5539,N,02504.9143,E,0.01,48.50,270418,,,A*5A

04/27/2018,09:34:23,15 CPM,0.17 uSV,5051 mV
$GPRMC,062624.000,A,4212.5538,N,02504.9143,E,0.01,48.50,270418,,,A*58

04/27/2018,09:35:23,10 CPM,0.17 uSV,5028 mV
$GPRMC,062724.000,A,4212.5518,N,02504.9093,E,0.54,48.50,270418,,,A*57

04/27/2018,09:36:23,10 CPM,0.17 uSV,5051 mV
$GPRMC,062824.000,A,4212.5138,N,02505.3040,E,47.83,109.22,270418,,,A*53

04/27/2018,09:37:23,8 CPM,0.17 uSV,5051 mV
$GPRMC,062924.000,A,4212.1765,N,02506.4840,E,57.09,111.57,270418,,,A*5C

04/27/2018,09:38:23,13 CPM,0.17 uSV,5051 mV
$GPRMC,063024.000,A,4211.8767,N,02507.7161,E,58.54,104.87,270418,,,A*5A

04/27/2018,09:39:23,22 CPM,0.18 uSV,5051 mV
$GPRMC,063123.000,A,4211.6712,N,02509.0591,E,65.07,97.89,270418,,,A*6F

04/27/2018,09:40:23,13 CPM,0.18 uSV,5051 mV
$GPRMC,063224.000,A,4211.5752,N,02510.4429,E,57.03,94.54,270418,,,A*64

04/27/2018,09:41:23,10 CPM,0.18 uSV,5028 mV
$GPRMC,063323.000,A,4211.5276,N,02511.8908,E,68.67,91.16,270418,,,A*6F

04/27/2018,09:42:23,22 CPM,0.18 uSV,5051 mV
$GPRMC,063423.000,A,4211.5711,N,02513.4111,E,67.03,84.03,270418,,,A*6F

04/27/2018,09:43:23,14 CPM,0.18 uSV,5051 mV
$GPRMC,063524.000,A,4211.1962,N,02514.4999,E,66.56,143.95,270418,,,A*5C

04/27/2018,09:44:23,18 CPM,0.18 uSV,5051 mV
$GPRMC,063623.000,A,4210.2446,N,02515.4293,E,75.61,144.59,270418,,,A*50

04/27/2018,09:45:23,15 CPM,0.18 uSV,5051 mV
$GPRMC,063724.000,A,4209.3670,N,02516.5802,E,70.55,125.03,270418,,,A*52

04/27/2018,09:46:23,19 CPM,0.19 uSV,5051 mV
$GPRMC,063823.000,A,4208.8513,N,02517.9747,E,72.28,113.69,270418,,,A*54

04/27/2018,09:47:23,12 CPM,0.19 uSV,5028 mV
$GPRMC,063924.000,A,4208.3834,N,02519.4866,E,70.41,109.29,270418,,,A*5C

04/27/2018,09:48:23,22 CPM,0.19 uSV,5051 mV
$GPRMC,064024.000,A,4208.0407,N,02520.9886,E,69.21,109.08,270418,,,A*59

04/27/2018,09:49:23,10 CPM,0.19 uSV,5051 mV
$GPRMC,064124.000,A,4207.4398,N,02522.3472,E,68.93,127.72,270418,,,A*54

04/27/2018,09:50:23,20 CPM,0.19 uSV,5051 mV
$GPRMC,064223.000,A,4207.0894,N,02523.7216,E,62.04,99.84,270418,,,A*6B

04/27/2018,09:51:23,15 CPM,0.19 uSV,5051 mV
$GPRMC,064323.000,A,4206.5174,N,02524.8766,E,65.90,136.60,270418,,,A*57

04/27/2018,09:52:23,9 CPM,0.19 uSV,5051 mV
$GPRMC,064423.000,A,4205.8366,N,02525.9666,E,68.54,115.38,270418,,,A*57

04/27/2018,09:53:23,26 CPM,0.20 uSV,5051 mV
$GPRMC,064524.000,A,4205.1509,N,02527.2035,E,70.17,147.61,270418,,,A*5B

04/27/2018,09:54:23,17 CPM,0.20 uSV,5051 mV
$GPRMC,064624.000,A,4204.1656,N,02528.0532,E,69.21,146.86,270418,,,A*5A

04/27/2018,09:55:23,20 CPM,0.20 uSV,5051 mV
$GPRMC,064723.000,A,4203.3702,N,02529.0543,E,64.95,126.83,270418,,,A*5F

04/27/2018,09:56:23,22 CPM,0.20 uSV,5051 mV
$GPRMC,064823.000,A,4202.8416,N,02530.1010,E,16.66,155.21,270418,,,A*53

04/27/2018,09:57:23,12 CPM,0.20 uSV,5051 mV
$GPRMC,064923.000,A,4202.8312,N,02530.1126,E,0.15,122.70,270418,,,A*62

04/27/2018,09:58:23,16 CPM,0.20 uSV,5051 mV
$GPRMC,065023.000,A,4202.8318,N,02530.1126,E,0.15,122.70,270418,,,A*60

04/27/2018,09:59:23,13 CPM,0.21 uSV,5051 mV
$GPRMC,065123.000,A,4202.8329,N,02530.1130,E,0.11,122.70,270418,,,A*60

04/27/2018,10:00:23,16 CPM,0.21 uSV,5051 mV
$GPRMC,065223.000,A,4202.8329,N,02530.1133,E,0.06,122.70,270418,,,A*66

04/27/2018,10:01:23,10 CPM,0.21 uSV,5051 mV
$GPRMC,065324.000,A,4202.8330,N,02530.1125,E,0.26,122.70,270418,,,A*6D

04/27/2018,10:02:23,16 CPM,0.21 uSV,5051 mV
$GPRMC,065424.000,A,4202.8321,N,02530.1119,E,0.18,122.70,270418,,,A*68

04/27/2018,10:03:23,9 CPM,0.21 uSV,5028 mV
$GPRMC,065524.000,A,4202.8330,N,02530.1131,E,0.07,122.70,270418,,,A*6D

04/27/2018,10:04:23,23 CPM,0.21 uSV,5051 mV
$GPRMC,065624.000,A,4202.8335,N,02530.1138,E,0.02,122.70,270418,,,A*67

04/27/2018,10:05:23,21 CPM,0.21 uSV,5051 mV
$GPRMC,065724.000,A,4202.8335,N,02530.1138,E,0.02,122.70,270418,,,A*66

04/27/2018,10:06:23,16 CPM,0.22 uSV,5028 mV
$GPRMC,065824.000,A,4202.8335,N,02530.1139,E,0.04,122.70,270418,,,A*6E

04/27/2018,10:07:23,15 CPM,0.22 uSV,5051 mV
$GPRMC,065924.000,A,4202.8335,N,02530.1139,E,0.02,122.70,270418,,,A*69

04/27/2018,10:08:23,20 CPM,0.22 uSV,5028 mV
$GPRMC,070024.000,A,4202.8337,N,02530.1147,E,0.00,122.70,270418,,,A*6D

04/27/2018,10:09:23,17 CPM,0.22 uSV,5028 mV
$GPRMC,070124.000,A,4202.8336,N,02530.1147,E,0.02,122.70,270418,,,A*6F

04/27/2018,10:10:23,15 CPM,0.22 uSV,5051 mV
$GPRMC,070224.000,A,4202.8336,N,02530.1148,E,0.01,122.70,270418,,,A*60

04/27/2018,10:11:23,16 CPM,0.22 uSV,5051 mV
$GPRMC,070324.000,A,4202.8336,N,02530.1148,E,0.02,122.70,270418,,,A*62

04/27/2018,10:12:23,19 CPM,0.23 uSV,5051 mV
$GPRMC,070424.000,A,4202.8336,N,02530.1147,E,0.03,122.70,270418,,,A*6B

04/27/2018,10:13:23,16 CPM,0.23 uSV,5051 mV
$GPRMC,070523.000,A,4202.8336,N,02530.1147,E,0.01,122.70,270418,,,A*6F

04/27/2018,10:14:23,23 CPM,0.23 uSV,5051 mV
$GPRMC,070623.000,A,4202.8336,N,02530.1147,E,0.02,122.70,270418,,,A*6F

04/27/2018,10:15:23,19 CPM,0.23 uSV,5028 mV
$GPRMC,070724.000,A,4202.8335,N,02530.1146,E,0.01,122.70,270418,,,A*68

04/27/2018,10:16:23,17 CPM,0.23 uSV,5028 mV
$GPRMC,070823.000,A,4202.8335,N,02530.1145,E,0.02,122.70,270418,,,A*60

04/27/2018,10:17:23,19 CPM,0.24 uSV,5051 mV
$GPRMC,070924.000,A,4202.8335,N,02530.1145,E,0.04,122.70,270418,,,A*60

04/27/2018,10:18:23,20 CPM,0.24 uSV,5051 mV
$GPRMC,071024.000,A,4202.8335,N,02530.1144,E,0.02,122.70,270418,,,A*6F

04/27/2018,10:19:23,25 CPM,0.24 uSV,5051 mV
$GPRMC,071124.000,A,4202.8335,N,02530.1144,E,0.02,122.70,270418,,,A*6E

04/27/2018,10:20:23,17 CPM,0.24 uSV,5028 mV
$GPRMC,071223.000,A,4202.8335,N,02530.1143,E,0.00,122.70,270418,,,A*6F

04/27/2018,10:21:23,17 CPM,0.24 uSV,5028 mV
$GPRMC,071324.000,A,4202.8334,N,02530.1141,E,0.02,122.70,270418,,,A*68

04/27/2018,10:22:23,18 CPM,0.24 uSV,5051 mV
$GPRMC,071424.000,A,4202.8333,N,02530.1139,E,0.01,122.70,270418,,,A*64

04/27/2018,10:23:23,24 CPM,0.25 uSV,5051 mV
$GPRMC,071524.000,A,4202.8332,N,02530.1138,E,0.03,122.70,270418,,,A*67

04/27/2018,10:24:23,29 CPM,0.25 uSV,5028 mV
$GPRMC,071624.000,A,4202.8331,N,02530.1138,E,0.02,122.70,270418,,,A*66

04/27/2018,10:25:23,17 CPM,0.25 uSV,5028 mV
$GPRMC,071724.000,A,4202.8331,N,02530.1138,E,0.00,122.70,270418,,,A*65

04/27/2018,10:26:23,14 CPM,0.25 uSV,5051 mV
$GPRMC,071824.000,A,4202.8330,N,02530.1139,E,0.01,122.70,270418,,,A*6B

04/27/2018,10:27:23,21 CPM,0.25 uSV,5051 mV
$GPRMC,071924.000,A,4202.8329,N,02530.1139,E,0.02,122.70,270418,,,A*61

04/27/2018,10:28:23,19 CPM,0.26 uSV,5028 mV
$GPRMC,072024.000,A,4202.8328,N,02530.1139,E,0.03,122.70,270418,,,A*6B

04/27/2018,10:29:23,21 CPM,0.26 uSV,5051 mV
$GPRMC,072124.000,A,4202.8326,N,02530.1139,E,0.01,122.70,270418,,,A*66

04/27/2018,10:30:23,16 CPM,0.26 uSV,5051 mV
$GPRMC,072224.000,A,4202.8326,N,02530.1138,E,0.02,122.70,270418,,,A*67

04/27/2018,10:31:23,12 CPM,0.26 uSV,5051 mV
$GPRMC,072324.000,A,4202.8325,N,02530.1137,E,0.01,122.70,270418,,,A*69

04/27/2018,10:32:23,19 CPM,0.26 uSV,5051 mV
$GPRMC,072424.000,A,4202.8324,N,02530.1136,E,0.03,122.70,270418,,,A*6C

04/27/2018,10:33:23,21 CPM,0.26 uSV,5051 mV
$GPRMC,072524.000,A,4202.8323,N,02530.1136,E,0.03,122.70,270418,,,A*6A

04/27/2018,10:34:23,14 CPM,0.27 uSV,5051 mV
$GPRMC,072624.000,A,4202.8323,N,02530.1137,E,0.02,122.70,270418,,,A*69

04/27/2018,10:35:23,15 CPM,0.27 uSV,5051 mV
$GPRMC,072724.000,A,4202.6733,N,02530.5869,E,58.97,113.88,270418,,,A*51

04/27/2018,10:36:23,22 CPM,0.27 uSV,5028 mV
$GPRMC,072824.000,A,4202.3429,N,02531.8888,E,55.63,112.59,270418,,,A*5B

04/27/2018,10:37:23,17 CPM,0.27 uSV,5051 mV
$GPRMC,072924.000,A,4201.9280,N,02532.8939,E,58.24,121.86,270418,,,A*52

04/27/2018,10:38:23,19 CPM,0.27 uSV,5051 mV
$GPRMC,073024.000,A,4201.5169,N,02534.0260,E,57.45,108.64,270418,,,A*54

04/27/2018,10:39:23,18 CPM,0.27 uSV,5051 mV
$GPRMC,073124.000,A,4201.3030,N,02534.9930,E,26.24,120.80,270418,,,A*58

04/27/2018,10:40:23,20 CPM,0.28 uSV,5051 mV
$GPRMC,073224.000,A,4201.7056,N,02534.7992,E,43.93,348.82,270418,,,A*58

04/27/2018,10:41:23,18 CPM,0.28 uSV,5051 mV
$GPRMC,073324.000,A,4202.4362,N,02534.7952,E,27.90,29.79,270418,,,A*60

04/27/2018,10:42:23,17 CPM,0.28 uSV,5051 mV
$GPRMC,073424.000,A,4202.8497,N,02535.1130,E,23.67,30.30,270418,,,A*64

04/27/2018,10:43:23,18 CPM,0.28 uSV,5051 mV
$GPRMC,073524.000,A,4202.9633,N,02535.5252,E,26.68,94.08,270418,,,A*64

04/27/2018,10:44:23,27 CPM,0.28 uSV,5028 mV
$GPRMC,073624.000,A,4202.9772,N,02536.1466,E,27.64,93.17,270418,,,A*61

04/27/2018,10:45:23,15 CPM,0.29 uSV,5051 mV
$GPRMC,073724.000,A,4202.9653,N,02536.3796,E,0.28,93.66,270418,,,A*57

04/27/2018,10:46:23,20 CPM,0.29 uSV,5028 mV
$GPRMC,073824.000,A,4202.9636,N,02536.3768,E,0.30,93.66,270418,,,A*53

04/27/2018,10:47:23,25 CPM,0.29 uSV,5028 mV
$GPRMC,073924.000,A,4202.9632,N,02536.3757,E,0.11,93.66,270418,,,A*59

04/27/2018,10:48:23,17 CPM,0.29 uSV,5028 mV
$GPRMC,074024.000,A,4202.9636,N,02536.3763,E,0.20,93.66,270418,,,A*56

04/27/2018,10:49:23,17 CPM,0.29 uSV,5051 mV
$GPRMC,074124.000,A,4202.9637,N,02536.3762,E,0.01,93.66,270418,,,A*54

04/27/2018,10:50:23,23 CPM,0.30 uSV,5028 mV
$GPRMC,074223.000,A,4202.9642,N,02536.3738,E,0.19,93.66,270418,,,A*54

04/27/2018,10:51:23,8 CPM,0.30 uSV,5051 mV
$GPRMC,074324.000,A,4202.9652,N,02536.3761,E,0.15,93.66,270418,,,A*53

04/27/2018,10:52:23,20 CPM,0.30 uSV,5051 mV
$GPRMC,074424.000,A,4202.9660,N,02536.3754,E,0.20,93.66,270418,,,A*55

04/27/2018,10:53:23,20 CPM,0.30 uSV,5051 mV
$GPRMC,074524.000,A,4202.9671,N,02536.3744,E,0.18,93.66,270418,,,A*5E

04/27/2018,10:54:23,20 CPM,0.30 uSV,5051 mV
$GPRMC,074624.000,A,4202.9677,N,02536.3748,E,0.17,93.66,270418,,,A*58

04/27/2018,10:55:23,12 CPM,0.30 uSV,5028 mV
$GPRMC,074724.000,A,4202.9671,N,02536.3756,E,0.15,93.66,270418,,,A*52

04/27/2018,10:56:23,12 CPM,0.30 uSV,5051 mV
$GPRMC,074824.000,A,4202.9666,N,02536.3783,E,0.10,93.66,270418,,,A*56

04/27/2018,10:57:23,14 CPM,0.31 uSV,5028 mV
$GPRMC,074924.000,A,4202.9679,N,02536.3774,E,0.20,93.66,270418,,,A*52

04/27/2018,10:58:23,23 CPM,0.31 uSV,5028 mV
$GPRMC,075024.000,A,4202.9969,N,02535.9877,E,25.08,279.09,270418,,,A*53

04/27/2018,10:59:23,11 CPM,0.31 uSV,5028 mV
$GPRMC,075124.000,A,4202.9731,N,02535.3559,E,25.34,272.95,270418,,,A*5B

04/27/2018,11:00:23,22 CPM,0.31 uSV,5028 mV
$GPRMC,075224.000,A,4202.8112,N,02535.0793,E,25.16,208.87,270418,,,A*57

04/27/2018,11:01:23,12 CPM,0.31 uSV,5051 mV
$GPRMC,075323.000,A,4202.3258,N,02534.7228,E,36.02,198.18,270418,,,A*5F

04/27/2018,11:02:23,24 CPM,0.31 uSV,5028 mV
$GPRMC,075423.000,A,4201.6475,N,02534.8046,E,52.59,170.10,270418,,,A*50

04/27/2018,11:03:23,16 CPM,0.32 uSV,5051 mV
$GPRMC,075523.000,A,4200.8761,N,02534.9218,E,40.68,193.81,270418,,,A*54

04/27/2018,11:04:23,24 CPM,0.32 uSV,5051 mV
$GPRMC,075624.000,A,4200.2466,N,02534.4233,E,44.07,212.91,270418,,,A*5C

04/27/2018,11:05:23,23 CPM,0.32 uSV,5051 mV
$GPRMC,075723.000,A,4159.5330,N,02533.9609,E,54.47,192.97,270418,,,A*59

04/27/2018,11:06:23,17 CPM,0.32 uSV,5051 mV
$GPRMC,075824.000,A,4158.6713,N,02533.7622,E,57.27,189.61,270418,,,A*57

04/27/2018,11:07:23,26 CPM,0.32 uSV,5028 mV
$GPRMC,075924.000,A,4157.7953,N,02533.5605,E,49.68,189.65,270418,,,A*55

04/27/2018,11:08:23,22 CPM,0.33 uSV,5051 mV
$GPRMC,080024.000,A,4157.0742,N,02533.3972,E,31.37,190.00,270418,,,A*58

04/27/2018,11:09:23,14 CPM,0.33 uSV,5051 mV
$GPRMC,080124.000,A,4156.6000,N,02533.2928,E,6.58,180.56,270418,,,A*6E

04/27/2018,11:10:23,20 CPM,0.33 uSV,5028 mV
$GPRMC,080224.000,A,4156.4060,N,02533.2901,E,0.02,174.76,270418,,,A*62

04/27/2018,11:11:23,26 CPM,0.33 uSV,5051 mV
$GPRMC,080324.000,A,4156.1383,N,02533.3100,E,0.00,167.70,270418,,,A*66

04/27/2018,11:12:23,15 CPM,0.33 uSV,5028 mV
$GPRMC,080424.000,A,4156.0565,N,02533.3265,E,5.72,172.33,270418,,,A*6D

04/27/2018,11:13:23,20 CPM,0.34 uSV,5051 mV
$GPRMC,080524.000,A,4156.0507,N,02533.3258,E,0.00,194.23,270418,,,A*6F

04/27/2018,11:14:23,26 CPM,0.34 uSV,5028 mV
$GPRMC,080624.000,A,4156.0215,N,02533.3319,E,0.00,174.39,270418,,,A*69

04/27/2018,11:15:23,18 CPM,0.34 uSV,5051 mV
$GPRMC,080724.000,A,4156.0194,N,02533.3314,E,0.00,174.39,270418,,,A*6F

04/27/2018,11:16:23,14 CPM,0.34 uSV,5028 mV
$GPRMC,080824.000,A,4156.0221,N,02533.3310,E,0.00,174.39,270418,,,A*69

04/27/2018,11:17:23,25 CPM,0.34 uSV,5028 mV
$GPRMC,080924.000,A,4156.0232,N,02533.3300,E,0.00,174.39,270418,,,A*6B

04/27/2018,11:18:23,24 CPM,0.35 uSV,5028 mV
$GPRMC,081024.000,A,4155.9785,N,02533.2949,E,4.52,316.39,270418,,,A*63

04/27/2018,11:19:23,21 CPM,0.35 uSV,5028 mV
$GPRMC,081124.000,A,4155.9647,N,02533.2230,E,0.00,330.55,270418,,,A*65

04/27/2018,11:20:23,16 CPM,0.35 uSV,5051 mV
$GPRMC,081224.000,A,4155.9913,N,02533.1960,E,0.15,332.47,270418,,,A*60

04/27/2018,11:21:23,11 CPM,0.35 uSV,5051 mV
$GPRMC,081324.000,A,4156.0034,N,02533.1848,E,0.08,320.64,270418,,,A*62

04/27/2018,11:22:23,27 CPM,0.35 uSV,5051 mV
$GPRMC,081424.000,A,4156.0609,N,02532.9077,E,14.68,263.53,270418,,,A*51

04/27/2018,11:23:23,21 CPM,0.35 uSV,5051 mV
$GPRMC,081524.000,A,4156.0531,N,02532.9150,E,0.09,166.46,270418,,,A*6C

04/27/2018,11:24:23,15 CPM,0.36 uSV,5051 mV
$GPRMC,081624.000,A,4156.0556,N,02532.9156,E,0.16,166.46,270418,,,A*66

04/27/2018,11:25:23,24 CPM,0.36 uSV,5028 mV
$GPRMC,081724.000,A,4156.0560,N,02532.9152,E,0.11,166.46,270418,,,A*61

04/27/2018,11:26:23,21 CPM,0.36 uSV,5028 mV
$GPRMC,081824.000,A,4156.0563,N,02532.9154,E,0.22,166.46,270418,,,A*6B

04/27/2018,11:27:23,16 CPM,0.36 uSV,5051 mV
$GPRMC,081924.000,A,4156.0555,N,02532.9155,E,0.12,166.46,270418,,,A*6D

04/27/2018,11:28:23,19 CPM,0.36 uSV,5051 mV
$GPRMC,082024.000,A,4156.0552,N,02532.9157,E,0.01,166.46,270418,,,A*60

04/27/2018,11:29:23,15 CPM,0.36 uSV,5028 mV
$GPRMC,082124.000,A,4156.0553,N,02532.9158,E,0.03,166.46,270418,,,A*6D

04/27/2018,11:30:23,10 CPM,0.37 uSV,5051 mV
$GPRMC,082224.000,A,4156.0554,N,02532.9157,E,0.03,166.46,270418,,,A*66

04/27/2018,11:31:23,17 CPM,0.37 uSV,5051 mV
$GPRMC,082324.000,A,4156.0555,N,02532.9155,E,0.07,166.46,270418,,,A*60

04/27/2018,11:32:23,17 CPM,0.37 uSV,5028 mV
$GPRMC,082424.000,A,4156.0550,N,02532.8871,E,1.07,12.56,270418,,,A*5E

04/27/2018,11:33:23,29 CPM,0.37 uSV,5051 mV
$GPRMC,082524.000,A,4156.0474,N,02532.9745,E,14.37,102.33,270418,,,A*55

04/27/2018,11:34:23,19 CPM,0.37 uSV,5051 mV
$GPRMC,082624.000,A,4156.0006,N,02533.1474,E,0.00,108.65,270418,,,A*67

04/27/2018,11:35:23,25 CPM,0.38 uSV,5028 mV
$GPRMC,082724.000,A,4156.0203,N,02533.2239,E,0.06,29.58,270418,,,A*57

04/27/2018,11:36:23,22 CPM,0.38 uSV,5051 mV
$GPRMC,082824.000,A,4156.1978,N,02533.3131,E,22.59,353.96,270418,,,A*52

04/27/2018,11:37:23,13 CPM,0.38 uSV,5051 mV
$GPRMC,082924.000,A,4156.4371,N,02533.2936,E,26.43,354.41,270418,,,A*59

04/27/2018,11:38:23,24 CPM,0.38 uSV,5051 mV
$GPRMC,083024.000,A,4156.6925,N,02533.3202,E,31.27,10.71,270418,,,A*61

04/27/2018,11:39:23,10 CPM,0.38 uSV,5051 mV
$GPRMC,083124.000,A,4157.2570,N,02533.4511,E,34.97,9.14,270418,,,A*5E

04/27/2018,11:40:23,22 CPM,0.38 uSV,5028 mV
$GPRMC,083224.000,A,4157.7229,N,02533.6369,E,8.11,151.88,270418,,,A*60

04/27/2018,11:41:23,19 CPM,0.39 uSV,5051 mV
$GPRMC,083324.000,A,4158.1054,N,02532.9244,E,45.76,309.48,270418,,,A*5B

04/27/2018,11:42:23,22 CPM,0.39 uSV,5051 mV
$GPRMC,083424.000,A,4158.6099,N,02532.0974,E,50.56,309.75,270418,,,A*53

04/27/2018,11:43:23,32 CPM,0.39 uSV,5051 mV
$GPRMC,083524.000,A,4159.0330,N,02531.2629,E,43.60,298.61,270418,,,A*58

04/27/2018,11:44:23,17 CPM,0.39 uSV,5051 mV
$GPRMC,083624.000,A,4159.3837,N,02530.2153,E,52.81,285.88,270418,,,A*5B

04/27/2018,11:45:23,10 CPM,0.39 uSV,5051 mV
$GPRMC,083724.000,A,4159.6478,N,02529.5380,E,31.56,301.92,270418,,,A*52

04/27/2018,11:46:23,18 CPM,0.40 uSV,5051 mV
$GPRMC,083824.000,A,4159.9806,N,02528.8245,E,39.04,302.19,270418,,,A*5C

04/27/2018,11:47:23,16 CPM,0.40 uSV,5051 mV
$GPRMC,083924.000,A,4200.3367,N,02527.9379,E,47.36,294.37,270418,,,A*5E

04/27/2018,11:48:23,10 CPM,0.40 uSV,5028 mV
$GPRMC,084024.000,A,4200.6903,N,02526.8796,E,58.88,292.93,270418,,,A*5B

04/27/2018,11:49:23,20 CPM,0.40 uSV,5051 mV
$GPRMC,084124.000,A,4200.9699,N,02525.9510,E,38.04,287.58,270418,,,A*56

04/27/2018,11:50:23,12 CPM,0.40 uSV,5051 mV
$GPRMC,084224.000,A,4200.9963,N,02525.8218,E,0.20,258.01,270418,,,A*62

04/27/2018,11:51:23,22 CPM,0.40 uSV,5051 mV
$GPRMC,084324.000,A,4200.9979,N,02525.8208,E,0.00,258.01,270418,,,A*6B

04/27/2018,11:52:23,21 CPM,0.41 uSV,5051 mV
$GPRMC,084424.000,A,4200.9967,N,02525.8258,E,0.38,258.01,270418,,,A*6D

04/27/2018,11:53:23,24 CPM,0.41 uSV,5051 mV
$GPRMC,084524.000,A,4200.9975,N,02525.8257,E,0.00,258.01,270418,,,A*6B

04/27/2018,11:54:23,11 CPM,0.41 uSV,5051 mV
$GPRMC,084624.000,A,4200.9975,N,02525.7902,E,17.39,267.48,270418,,,A*51

04/27/2018,11:55:23,24 CPM,0.41 uSV,5051 mV
$GPRMC,084724.000,A,4200.9812,N,02525.4874,E,18.19,94.54,270418,,,A*6D

04/27/2018,11:56:23,26 CPM,0.41 uSV,5051 mV
$GPRMC,084824.000,A,4200.8073,N,02525.7310,E,17.94,135.92,270418,,,A*5C

04/27/2018,11:57:23,25 CPM,0.42 uSV,5051 mV
$GPRMC,084924.000,A,4200.6327,N,02525.6937,E,15.16,188.73,270418,,,A*5E

04/27/2018,11:58:23,32 CPM,0.42 uSV,5051 mV
$GPRMC,085024.000,A,4200.4778,N,02525.7122,E,9.81,180.91,270418,,,A*60

04/27/2018,11:59:23,16 CPM,0.42 uSV,5051 mV
$GPRMC,085124.000,A,4200.2438,N,02525.5959,E,26.18,210.60,270418,,,A*5F

04/27/2018,12:00:23,34 CPM,0.42 uSV,5051 mV
$GPRMC,085224.000,A,4159.8910,N,02525.3760,E,5.75,173.10,270418,,,A*67

04/27/2018,12:01:23,24 CPM,0.43 uSV,5051 mV
$GPRMC,085324.000,A,4159.6119,N,02525.3775,E,19.97,183.76,270418,,,A*53

04/27/2018,12:02:23,25 CPM,0.43 uSV,5051 mV
$GPRMC,085424.000,A,4159.3717,N,02525.5613,E,11.93,132.80,270418,,,A*51

04/27/2018,12:03:23,34 CPM,0.43 uSV,5051 mV
$GPRMC,085524.000,A,4159.2576,N,02525.7351,E,22.47,137.20,270418,,,A*53

04/27/2018,12:04:23,16 CPM,0.43 uSV,5051 mV
$GPRMC,085624.000,A,4159.0267,N,02525.9136,E,10.04,194.68,270418,,,A*5B

04/27/2018,12:05:23,16 CPM,0.43 uSV,5051 mV
$GPRMC,085724.000,A,4158.7428,N,02525.8571,E,30.10,152.72,270418,,,A*51

04/27/2018,12:06:23,24 CPM,0.44 uSV,5051 mV
$GPRMC,085824.000,A,4158.3631,N,02526.1655,E,17.68,165.31,270418,,,A*56

04/27/2018,12:07:23,23 CPM,0.44 uSV,5051 mV
$GPRMC,085924.000,A,4158.1518,N,02526.3072,E,23.10,121.18,270418,,,A*5F

04/27/2018,12:08:23,16 CPM,0.44 uSV,5051 mV
$GPRMC,090024.000,A,4158.0462,N,02526.7237,E,16.47,151.76,270418,,,A*53

04/27/2018,12:09:23,15 CPM,0.44 uSV,5051 mV
$GPRMC,090124.000,A,4157.8686,N,02526.8760,E,29.21,186.32,270418,,,A*53

04/27/2018,12:10:23,13 CPM,0.44 uSV,5051 mV
$GPRMC,090224.000,A,4157.4483,N,02526.7547,E,20.47,200.13,270418,,,A*54

04/27/2018,12:11:23,31 CPM,0.45 uSV,5051 mV
$GPRMC,090324.000,A,4157.1458,N,02526.9130,E,24.69,152.14,270418,,,A*57

04/27/2018,12:12:23,30 CPM,0.45 uSV,5051 mV
$GPRMC,090424.000,A,4156.9104,N,02527.0717,E,0.03,155.07,270418,,,A*61

04/27/2018,12:13:23,17 CPM,0.45 uSV,5051 mV
$GPRMC,090524.000,A,4156.9131,N,02527.0707,E,0.24,155.07,270418,,,A*62

04/27/2018,12:14:23,25 CPM,0.45 uSV,5051 mV
$GPRMC,090624.000,A,4156.6275,N,02527.2369,E,45.40,157.61,270418,,,A*52

04/27/2018,12:15:23,23 CPM,0.46 uSV,5051 mV
$GPRMC,090724.000,A,4156.2009,N,02527.4094,E,27.83,281.89,270418,,,A*5C

04/27/2018,12:16:23,23 CPM,0.46 uSV,5051 mV
$GPRMC,090824.000,A,4156.0936,N,02526.9976,E,0.03,236.64,270418,,,A*6F

04/27/2018,12:17:23,23 CPM,0.46 uSV,5051 mV
$GPRMC,090924.000,A,4156.0939,N,02526.9937,E,0.00,236.64,270418,,,A*67

04/27/2018,12:18:23,34 CPM,0.46 uSV,5051 mV
$GPRMC,091024.000,A,4156.0928,N,02526.9926,E,0.49,236.64,270418,,,A*62

04/27/2018,12:19:23,14 CPM,0.46 uSV,5051 mV
$GPRMC,091124.000,A,4156.0927,N,02526.9927,E,0.00,236.64,270418,,,A*60

04/27/2018,12:20:23,26 CPM,0.47 uSV,5051 mV
$GPRMC,091224.000,A,4156.0917,N,02526.9947,E,0.00,236.64,270418,,,A*66

04/27/2018,12:21:23,30 CPM,0.47 uSV,5028 mV
$GPRMC,091324.000,A,4156.0660,N,02527.0318,E,0.16,120.03,270418,,,A*62

04/27/2018,12:22:23,39 CPM,0.47 uSV,5028 mV
$GPRMC,091424.000,A,4156.0643,N,02527.0342,E,0.30,171.07,270418,,,A*6F

04/27/2018,12:23:23,31 CPM,0.48 uSV,5028 mV
$GPRMC,091524.000,A,4156.0658,N,02527.0369,E,0.40,43.86,270418,,,A*53

04/27/2018,12:24:23,23 CPM,0.48 uSV,5028 mV
$GPRMC,091624.000,A,4156.0586,N,02527.0387,E,1.48,210.42,270418,,,A*65

04/27/2018,12:25:23,21 CPM,0.48 uSV,5028 mV
$GPRMC,091724.000,A,4156.0600,N,02527.0330,E,1.10,240.90,270418,,,A*62

04/27/2018,12:26:23,22 CPM,0.48 uSV,5028 mV
$GPRMC,091824.000,A,4156.0773,N,02527.0144,E,1.76,311.43,270418,,,A*62

04/27/2018,12:27:23,41 CPM,0.49 uSV,5028 mV
$GPRMC,091924.000,A,4156.0926,N,02527.0005,E,0.45,37.77,270418,,,A*58

04/27/2018,12:28:23,26 CPM,0.49 uSV,5028 mV
$GPRMC,092024.000,A,4156.0957,N,02526.9950,E,1.23,290.77,270418,,,A*6B

04/27/2018,12:29:23,31 CPM,0.49 uSV,5028 mV
$GPRMC,092124.000,A,4156.0979,N,02526.9956,E,0.77,313.66,270418,,,A*6A

04/27/2018,12:30:23,20 CPM,0.49 uSV,5028 mV
$GPRMC,092224.000,A,4156.0990,N,02526.9955,E,1.67,336.58,270418,,,A*67

04/27/2018,12:31:23,16 CPM,0.50 uSV,5028 mV
$GPRMC,092324.000,A,4156.0983,N,02526.9943,E,1.45,333.62,270418,,,A*6F

04/27/2018,12:32:23,14 CPM,0.50 uSV,5051 mV
$GPRMC,092424.000,A,4156.0973,N,02526.9949,E,1.64,318.08,270418,,,A*6B

04/27/2018,12:33:23,20 CPM,0.50 uSV,5051 mV
$GPRMC,092524.000,A,4156.0902,N,02526.9980,E,0.52,322.69,270418,,,A*63

04/27/2018,12:34:23,18 CPM,0.50 uSV,5051 mV
$GPRMC,092624.000,A,4156.0938,N,02526.9977,E,0.20,334.51,270418,,,A*68

04/27/2018,12:35:23,20 CPM,0.50 uSV,5028 mV
$GPRMC,092724.000,A,4156.0943,N,02526.9950,E,0.29,311.24,270418,,,A*6C

04/27/2018,12:36:23,18 CPM,0.50 uSV,5051 mV
$GPRMC,092824.000,A,4156.0913,N,02526.9966,E,0.28,148.06,270418,,,A*6C

04/27/2018,12:37:23,20 CPM,0.51 uSV,5028 mV
$GPRMC,092924.000,A,4156.0907,N,02526.9982,E,0.28,148.06,270418,,,A*62

04/27/2018,12:38:23,27 CPM,0.51 uSV,5028 mV
$GPRMC,093024.000,A,4156.0903,N,02526.9993,E,0.58,240.45,270418,,,A*65

04/27/2018,12:39:23,16 CPM,0.51 uSV,5028 mV
$GPRMC,093124.000,A,4156.0316,N,02526.8451,E,24.25,248.22,270418,,,A*5D

04/27/2018,12:40:23,18 CPM,0.51 uSV,5028 mV
$GPRMC,093224.000,A,4156.0071,N,02526.0870,E,37.73,246.96,270418,,,A*5B

04/27/2018,12:41:23,16 CPM,0.51 uSV,5028 mV
$GPRMC,093324.000,A,4155.8428,N,02525.4015,E,35.69,248.02,270418,,,A*5F

04/27/2018,12:42:23,10 CPM,0.51 uSV,5051 mV
$GPRMC,093424.000,A,4155.8220,N,02524.4561,E,47.20,267.83,270418,,,A*5D

04/27/2018,12:43:23,8 CPM,0.51 uSV,5051 mV
$GPRMC,093524.000,A,4155.8785,N,02523.5700,E,41.51,274.89,270418,,,A*5D

04/27/2018,12:44:23,22 CPM,0.52 uSV,5028 mV
$GPRMC,093624.000,A,4155.7624,N,02522.6907,E,45.63,259.19,270418,,,A*53

04/27/2018,12:45:23,17 CPM,0.52 uSV,5051 mV
$GPRMC,093724.000,A,4155.9429,N,02521.8598,E,37.88,304.75,270418,,,A*57

04/27/2018,12:46:23,12 CPM,0.52 uSV,5051 mV
$GPRMC,093824.000,A,4156.2343,N,02521.2058,E,10.15,297.80,270418,,,A*58

04/27/2018,12:47:23,18 CPM,0.52 uSV,5051 mV
$GPRMC,093924.000,A,4155.9606,N,02520.8597,E,20.80,221.25,270418,,,A*55

04/27/2018,12:48:23,23 CPM,0.52 uSV,5051 mV
$GPRMC,094024.000,A,4155.6749,N,02520.5843,E,19.03,214.08,270418,,,A*5F

04/27/2018,12:49:23,34 CPM,0.53 uSV,5028 mV
$GPRMC,094124.000,A,4155.4630,N,02520.4406,E,23.44,208.55,270418,,,A*50

04/27/2018,12:50:23,25 CPM,0.53 uSV,5051 mV
$GPRMC,094224.000,A,4155.2505,N,02520.1973,E,0.04,51.65,270418,,,A*52

04/27/2018,12:51:23,12 CPM,0.53 uSV,5028 mV
$GPRMC,094324.000,A,4155.2502,N,02520.1960,E,0.23,51.65,270418,,,A*53

04/27/2018,12:52:23,14 CPM,0.53 uSV,5028 mV
$GPRMC,094424.000,A,4155.2555,N,02520.1939,E,0.74,51.65,270418,,,A*58

04/27/2018,12:53:23,24 CPM,0.53 uSV,5028 mV
$GPRMC,094524.000,A,4155.2493,N,02520.1975,E,1.62,51.65,270418,,,A*5C

04/27/2018,12:54:23,18 CPM,0.54 uSV,5028 mV
$GPRMC,094624.000,A,4155.2490,N,02520.1993,E,0.49,78.81,270418,,,A*5D

04/27/2018,12:55:23,18 CPM,0.54 uSV,5028 mV
$GPRMC,094724.000,A,4155.2515,N,02520.2003,E,0.34,48.79,270418,,,A*5D

04/27/2018,12:56:23,17 CPM,0.54 uSV,5028 mV
$GPRMC,094824.000,A,4155.2783,N,02520.1822,E,17.45,269.66,270418,,,A*58

04/27/2018,12:57:23,18 CPM,0.54 uSV,5028 mV
$GPRMC,094924.000,A,4155.4229,N,02519.5228,E,25.29,299.66,270418,,,A*50

04/27/2018,12:58:23,18 CPM,0.54 uSV,5028 mV
$GPRMC,095024.000,A,4155.4122,N,02519.1708,E,4.07,228.09,270418,,,A*6F

04/27/2018,12:59:23,18 CPM,0.54 uSV,5028 mV
$GPRMC,095124.000,A,4155.2707,N,02519.1390,E,29.79,80.65,270418,,,A*60

04/27/2018,13:00:23,16 CPM,0.55 uSV,5028 mV
$GPRMC,095224.000,A,4154.9995,N,02519.3720,E,18.40,154.09,270418,,,A*5B

04/27/2018,13:01:23,22 CPM,0.55 uSV,5028 mV
$GPRMC,095324.000,A,4154.8956,N,02519.3636,E,20.92,281.46,270418,,,A*56

04/27/2018,13:02:23,23 CPM,0.55 uSV,5028 mV
$GPRMC,095424.000,A,4154.8472,N,02519.2494,E,24.39,132.48,270418,,,A*51

04/27/2018,13:03:23,31 CPM,0.55 uSV,5028 mV
$GPRMC,095524.000,A,4154.5748,N,02518.9332,E,25.62,212.22,270418,,,A*54

04/27/2018,13:04:23,24 CPM,0.55 uSV,5028 mV
$GPRMC,095624.000,A,4154.4098,N,02518.3993,E,27.47,247.31,270418,,,A*50

04/27/2018,13:05:23,20 CPM,0.56 uSV,5028 mV
$GPRMC,095724.000,A,4154.4105,N,02518.1202,E,1.98,16.66,270418,,,A*57

04/27/2018,13:06:23,13 CPM,0.56 uSV,5028 mV
$GPRMC,095824.000,A,4154.3477,N,02517.8664,E,21.99,218.11,270418,,,A*52

04/27/2018,13:07:23,16 CPM,0.56 uSV,5028 mV
$GPRMC,095924.000,A,4154.2381,N,02517.9146,E,0.00,173.54,270418,,,A*66

04/27/2018,13:08:23,24 CPM,0.56 uSV,5028 mV
$GPRMC,100024.000,A,4154.2388,N,02517.9142,E,0.00,173.54,270418,,,A*6F

04/27/2018,13:09:23,26 CPM,0.56 uSV,5028 mV
$GPRMC,100124.000,A,4154.2408,N,02517.9232,E,0.11,173.54,270418,,,A*65

04/27/2018,13:10:23,29 CPM,0.57 uSV,5028 mV
$GPRMC,100224.000,A,4154.2483,N,02517.9422,E,0.49,173.23,270418,,,A*6F

04/27/2018,13:11:23,42 CPM,0.57 uSV,5028 mV
$GPRMC,100324.000,A,4154.2521,N,02517.9439,E,0.57,345.15,270418,,,A*60

04/27/2018,13:12:23,30 CPM,0.57 uSV,5028 mV
$GPRMC,100424.000,A,4154.2541,N,02517.9437,E,0.78,24.77,270418,,,A*52

04/27/2018,13:13:23,28 CPM,0.58 uSV,5028 mV
$GPRMC,100524.000,A,4154.2518,N,02517.9433,E,1.04,162.05,270418,,,A*67

04/27/2018,13:14:23,48 CPM,0.58 uSV,5028 mV
$GPRMC,100624.000,A,4154.2503,N,02517.9438,E,0.71,207.19,270418,,,A*6B

04/27/2018,13:15:23,34 CPM,0.58 uSV,5028 mV
$GPRMC,100724.000,A,4154.2486,N,02517.9499,E,0.48,118.68,270418,,,A*6C

04/27/2018,13:16:23,40 CPM,0.59 uSV,5028 mV
$GPRMC,100824.000,A,4154.2508,N,02517.9479,E,0.97,359.21,270418,,,A*62

04/27/2018,13:17:23,37 CPM,0.59 uSV,5028 mV
$GPRMC,100924.000,A,4154.2496,N,02517.9497,E,0.50,160.59,270418,,,A*69

04/27/2018,13:18:23,34 CPM,0.59 uSV,5028 mV
$GPRMC,101024.000,A,4154.2537,N,02517.9465,E,0.71,340.67,270418,,,A*68

04/27/2018,13:19:23,39 CPM,0.60 uSV,5028 mV
$GPRMC,101124.000,A,4154.2477,N,02517.9477,E,0.32,212.33,270418,,,A*6F

04/27/2018,13:20:23,43 CPM,0.60 uSV,5028 mV
$GPRMC,101224.000,A,4154.2466,N,02517.9503,E,0.36,222.10,270418,,,A*68

04/27/2018,13:21:23,42 CPM,0.61 uSV,5028 mV
$GPRMC,101324.000,A,4154.2467,N,02517.9440,E,0.84,286.78,270418,,,A*67

04/27/2018,13:22:23,24 CPM,0.61 uSV,5028 mV
$GPRMC,101424.000,A,4154.2541,N,02517.9139,E,0.34,302.55,270418,,,A*67

04/27/2018,13:23:23,16 CPM,0.61 uSV,5028 mV
$GPRMC,101524.000,A,4154.2600,N,02517.9009,E,3.37,314.45,270418,,,A*64

04/27/2018,13:24:23,15 CPM,0.61 uSV,5028 mV
$GPRMC,101624.000,A,4154.4101,N,02518.1758,E,24.62,88.73,270418,,,A*65

04/27/2018,13:25:23,12 CPM,0.61 uSV,5028 mV
$GPRMC,101724.000,A,4154.5517,N,02518.7096,E,34.09,84.07,270418,,,A*66

04/27/2018,13:26:23,24 CPM,0.62 uSV,5028 mV
$GPRMC,101824.000,A,4154.7570,N,02519.1643,E,29.78,56.77,270418,,,A*61

04/27/2018,13:27:23,29 CPM,0.62 uSV,5051 mV
$GPRMC,101924.000,A,4154.9691,N,02519.1083,E,17.74,44.78,270418,,,A*65

04/27/2018,13:28:23,34 CPM,0.62 uSV,5028 mV
$GPRMC,102024.000,A,4154.8391,N,02519.4615,E,5.89,18.92,270418,,,A*5B

04/27/2018,13:29:23,14 CPM,0.62 uSV,5028 mV
$GPRMC,102124.000,A,4155.1124,N,02519.3822,E,27.69,19.01,270418,,,A*66

04/27/2018,13:30:23,18 CPM,0.62 uSV,5028 mV
$GPRMC,102224.000,A,4155.2712,N,02518.9850,E,12.56,11.04,270418,,,A*6C

04/27/2018,13:31:23,15 CPM,0.63 uSV,5028 mV
$GPRMC,102324.000,A,4155.4033,N,02519.5776,E,44.63,119.48,270418,,,A*5D

04/27/2018,13:32:23,11 CPM,0.63 uSV,5028 mV
$GPRMC,102424.000,A,4155.2776,N,02520.2051,E,14.34,83.65,270418,,,A*6F

04/27/2018,13:33:23,13 CPM,0.63 uSV,5028 mV
$GPRMC,102524.000,A,4155.5107,N,02520.4710,E,22.13,28.97,270418,,,A*61

04/27/2018,13:34:23,12 CPM,0.63 uSV,5051 mV
$GPRMC,102624.000,A,4155.8229,N,02520.7254,E,20.15,35.03,270418,,,A*63

04/27/2018,13:35:23,21 CPM,0.63 uSV,5028 mV
$GPRMC,102724.000,A,4155.9140,N,02520.8028,E,0.92,190.36,270418,,,A*6C

04/27/2018,13:36:23,16 CPM,0.63 uSV,5028 mV
$GPRMC,102824.000,A,4155.9131,N,02520.8024,E,0.00,190.36,270418,,,A*62

04/27/2018,13:37:23,22 CPM,0.63 uSV,5028 mV
$GPRMC,102924.000,A,4155.9132,N,02520.8023,E,0.00,190.36,270418,,,A*67

04/27/2018,13:38:23,21 CPM,0.64 uSV,5028 mV
$GPRMC,103024.000,A,4155.9150,N,02520.8018,E,0.22,190.36,270418,,,A*63

04/27/2018,13:39:23,14 CPM,0.64 uSV,5028 mV
$GPRMC,103124.000,A,4155.9139,N,02520.8026,E,0.00,190.36,270418,,,A*60

04/27/2018,13:40:23,27 CPM,0.64 uSV,5028 mV
$GPRMC,103224.000,A,4155.9211,N,02520.8053,E,0.76,13.46,270418,,,A*54

04/27/2018,13:41:23,18 CPM,0.64 uSV,5028 mV
$GPRMC,103324.000,A,4155.9206,N,02520.8054,E,0.35,107.91,270418,,,A*6D

04/27/2018,13:42:23,14 CPM,0.64 uSV,5051 mV
$GPRMC,103424.000,A,4155.9101,N,02520.8017,E,0.33,226.20,270418,,,A*65

04/27/2018,13:43:23,22 CPM,0.65 uSV,5028 mV
$GPRMC,103524.000,A,4155.9116,N,02520.8034,E,0.58,178.89,270418,,,A*65

04/27/2018,13:44:23,16 CPM,0.65 uSV,5028 mV
$GPRMC,103624.000,A,4155.9122,N,02520.8055,E,0.47,41.44,270418,,,A*52

04/27/2018,13:45:23,23 CPM,0.65 uSV,5028 mV
$GPRMC,103724.000,A,4155.9135,N,02520.8033,E,0.08,181.29,270418,,,A*68

04/27/2018,13:46:23,19 CPM,0.65 uSV,5028 mV
$GPRMC,103824.000,A,4155.9126,N,02520.8020,E,0.05,24.08,270418,,,A*57

04/27/2018,13:47:23,15 CPM,0.65 uSV,5028 mV
$GPRMC,103924.000,A,4155.9185,N,02520.8047,E,0.42,356.42,270418,,,A*65

04/27/2018,13:48:23,19 CPM,0.65 uSV,5028 mV
$GPRMC,104024.000,A,4155.9168,N,02520.8023,E,0.51,56.36,270418,,,A*58

04/27/2018,13:49:23,11 CPM,0.66 uSV,5028 mV
$GPRMC,104124.000,A,4155.9209,N,02520.8045,E,0.97,8.76,270418,,,A*68

04/27/2018,13:50:23,19 CPM,0.66 uSV,5028 mV
$GPRMC,104224.000,A,4155.9180,N,02520.8040,E,0.33,333.31,270418,,,A*6A

04/27/2018,13:51:23,25 CPM,0.66 uSV,5028 mV
$GPRMC,104324.000,A,4155.9194,N,02520.8043,E,0.37,142.65,270418,,,A*6C

04/27/2018,13:52:23,14 CPM,0.66 uSV,5028 mV
$GPRMC,104424.000,A,4155.9100,N,02520.8039,E,0.66,15.27,270418,,,A*5A

04/27/2018,13:53:23,17 CPM,0.66 uSV,5028 mV
$GPRMC,104524.000,A,4155.9107,N,02520.8042,E,0.22,56.40,270418,,,A*56

04/27/2018,13:54:23,28 CPM,0.67 uSV,5051 mV
$GPRMC,104624.000,A,4155.9111,N,02520.8046,E,0.57,251.64,270418,,,A*67

04/27/2018,13:55:23,28 CPM,0.67 uSV,5028 mV
$GPRMC,104724.000,A,4155.9128,N,02520.8055,E,0.23,112.19,270418,,,A*63

04/27/2018,13:56:23,24 CPM,0.67 uSV,5028 mV
$GPRMC,104824.000,A,4155.9125,N,02520.8069,E,0.43,347.54,270418,,,A*63

04/27/2018,13:57:23,18 CPM,0.67 uSV,5028 mV
$GPRMC,104924.000,A,4155.9131,N,02520.8069,E,0.57,299.87,270418,,,A*6E

04/27/2018,13:58:23,30 CPM,0.67 uSV,5028 mV
$GPRMC,105024.000,A,4155.9131,N,02520.8051,E,0.37,180.94,270418,,,A*62

04/27/2018,13:59:23,22 CPM,0.68 uSV,5028 mV
$GPRMC,105124.000,A,4155.9120,N,02520.8052,E,0.39,326.77,270418,,,A*6D

04/27/2018,14:00:23,23 CPM,0.68 uSV,5028 mV
$GPRMC,105224.000,A,4155.9113,N,02520.8049,E,0.11,321.63,270418,,,A*6C

04/27/2018,14:01:23,12 CPM,0.68 uSV,5028 mV
$GPRMC,105324.000,A,4155.9109,N,02520.8037,E,0.24,195.96,270418,,,A*6E

04/27/2018,14:02:23,21 CPM,0.68 uSV,5051 mV
$GPRMC,105424.000,A,4155.9137,N,02520.8031,E,0.40,358.30,270418,,,A*6F

04/27/2018,14:03:23,17 CPM,0.68 uSV,5028 mV
$GPRMC,105524.000,A,4155.9130,N,02520.8018,E,0.11,0.79,270418,,,A*65

04/27/2018,14:04:23,22 CPM,0.69 uSV,5051 mV
$GPRMC,105624.000,A,4155.9152,N,02520.8046,E,0.30,6.17,270418,,,A*64

04/27/2018,14:05:23,14 CPM,0.69 uSV,5028 mV
$GPRMC,105724.000,A,4155.9118,N,02520.8076,E,0.57,152.29,270418,,,A*64

04/27/2018,14:06:23,15 CPM,0.69 uSV,5051 mV
$GPRMC,105824.000,A,4155.9160,N,02520.8026,E,0.14,303.92,270418,,,A*60

04/27/2018,14:07:23,21 CPM,0.69 uSV,5028 mV
$GPRMC,105924.000,A,4155.9155,N,02520.8039,E,0.13,122.72,270418,,,A*61

04/27/2018,14:08:23,32 CPM,0.69 uSV,5051 mV
$GPRMC,110024.000,A,4155.9120,N,02520.8067,E,1.09,121.87,270418,,,A*66

04/27/2018,14:09:23,15 CPM,0.70 uSV,5028 mV
$GPRMC,110124.000,A,4155.9090,N,02520.8063,E,0.73,128.62,270418,,,A*67

04/27/2018,14:10:23,9 CPM,0.70 uSV,5028 mV
$GPRMC,110224.000,A,4155.9141,N,02520.8067,E,0.14,38.81,270418,,,A*51

04/27/2018,14:11:23,20 CPM,0.70 uSV,5028 mV
$GPRMC,110324.000,A,4155.9109,N,02520.8051,E,0.45,138.01,270418,,,A*64

04/27/2018,14:12:23,19 CPM,0.70 uSV,5028 mV
$GPRMC,110424.000,A,4155.9109,N,02520.8055,E,0.75,330.22,270418,,,A*6F

04/27/2018,14:13:23,24 CPM,0.70 uSV,5028 mV
$GPRMC,110524.000,A,4155.9105,N,02520.8138,E,0.11,17.03,270418,,,A*5F

04/27/2018,14:14:23,21 CPM,0.70 uSV,5028 mV
$GPRMC,110624.000,A,4155.9072,N,02520.8165,E,0.96,313.21,270418,,,A*6D

04/27/2018,14:15:23,17 CPM,0.71 uSV,5028 mV
$GPRMC,110724.000,A,4155.9144,N,02520.8028,E,1.03,315.39,270418,,,A*62

04/27/2018,14:16:23,21 CPM,0.71 uSV,5028 mV
$GPRMC,110824.000,A,4155.9164,N,02520.7999,E,0.22,308.35,270418,,,A*61

04/27/2018,14:17:23,20 CPM,0.71 uSV,5051 mV
$GPRMC,110924.000,A,4155.9169,N,02520.7993,E,0.14,297.38,270418,,,A*68

04/27/2018,14:18:23,28 CPM,0.71 uSV,5028 mV
$GPRMC,111024.000,A,4155.9148,N,02520.8009,E,0.23,297.38,270418,,,A*62

04/27/2018,14:19:23,14 CPM,0.71 uSV,5028 mV
$GPRMC,111124.000,A,4155.9141,N,02520.8038,E,0.14,297.38,270418,,,A*6C

04/27/2018,14:20:23,15 CPM,0.71 uSV,5028 mV
$GPRMC,111224.000,A,4155.9157,N,02520.8031,E,0.04,297.38,270418,,,A*60

04/27/2018,14:21:23,25 CPM,0.72 uSV,5051 mV
$GPRMC,111324.000,A,4155.9149,N,02520.8022,E,0.15,297.38,270418,,,A*6C

04/27/2018,14:22:23,13 CPM,0.72 uSV,5028 mV
$GPRMC,111424.000,A,4155.9176,N,02520.8026,E,0.13,297.38,270418,,,A*65

04/27/2018,14:23:23,19 CPM,0.72 uSV,5028 mV
$GPRMC,111524.000,A,4155.9144,N,02520.8006,E,0.36,297.38,270418,,,A*60

04/27/2018,14:24:23,16 CPM,0.72 uSV,5028 mV
$GPRMC,111624.000,A,4155.9150,N,02520.7991,E,0.28,297.38,270418,,,A*61

04/27/2018,14:25:23,22 CPM,0.72 uSV,5028 mV
$GPRMC,111724.000,A,4155.9143,N,02520.8006,E,0.10,297.38,270418,,,A*61

04/27/2018,14:26:23,20 CPM,0.73 uSV,5028 mV
$GPRMC,111824.000,A,4155.9132,N,02520.8024,E,0.11,297.38,270418,,,A*69

04/27/2018,14:27:23,18 CPM,0.73 uSV,5051 mV
$GPRMC,111924.000,A,4155.9112,N,02520.8014,E,0.27,197.82,270418,,,A*6E

04/27/2018,14:28:23,8 CPM,0.73 uSV,5028 mV
$GPRMC,112024.000,A,4155.9104,N,02520.8030,E,0.44,245.02,270418,,,A*64

04/27/2018,14:29:23,11 CPM,0.73 uSV,5028 mV
$GPRMC,112124.000,A,4155.9096,N,02520.8050,E,0.45,257.29,270418,,,A*62

04/27/2018,14:30:23,8 CPM,0.73 uSV,5051 mV
$GPRMC,112224.000,A,4155.9107,N,02520.8080,E,0.25,328.47,270418,,,A*62

04/27/2018,14:31:23,14 CPM,0.73 uSV,5028 mV
$GPRMC,112324.000,A,4155.9093,N,02520.8103,E,0.44,180.47,270418,,,A*62

04/27/2018,14:32:23,15 CPM,0.73 uSV,5028 mV
$GPRMC,112424.000,A,4155.9096,N,02520.8042,E,0.52,19.21,270418,,,A*52

04/27/2018,14:33:23,13 CPM,0.73 uSV,5028 mV
$GPRMC,112524.000,A,4155.9116,N,02520.8037,E,0.34,136.83,270418,,,A*6C

04/27/2018,14:34:23,19 CPM,0.74 uSV,5051 mV
$GPRMC,112624.000,A,4155.9119,N,02520.8045,E,0.36,162.06,270418,,,A*6B

04/27/2018,14:35:23,15 CPM,0.74 uSV,5028 mV
$GPRMC,112724.000,A,4155.9159,N,02520.8042,E,0.85,9.70,270418,,,A*6C

04/27/2018,14:36:23,19 CPM,0.74 uSV,5028 mV
$GPRMC,112824.000,A,4155.9155,N,02520.8051,E,0.16,166.29,270418,,,A*63

04/27/2018,14:37:23,24 CPM,0.74 uSV,5028 mV
$GPRMC,112924.000,A,4155.9139,N,02520.8039,E,0.73,330.58,270418,,,A*62

04/27/2018,14:38:23,22 CPM,0.74 uSV,5028 mV
$GPRMC,113024.000,A,4155.9116,N,02520.8032,E,0.56,26.46,270418,,,A*50

04/27/2018,14:39:23,18 CPM,0.75 uSV,5028 mV
$GPRMC,113124.000,A,4155.9137,N,02520.8036,E,0.39,305.26,270418,,,A*6B

04/27/2018,14:40:23,24 CPM,0.75 uSV,5028 mV
$GPRMC,113224.000,A,4155.9136,N,02520.8052,E,0.41,218.85,270418,,,A*60

04/27/2018,14:41:23,18 CPM,0.75 uSV,5028 mV
$GPRMC,113324.000,A,4155.9129,N,02520.8040,E,0.46,48.52,270418,,,A*56

04/27/2018,14:42:23,20 CPM,0.75 uSV,5028 mV
$GPRMC,113424.000,A,4155.9123,N,02520.8038,E,0.38,100.17,270418,,,A*61

04/27/2018,14:43:23,20 CPM,0.75 uSV,5028 mV
$GPRMC,113524.000,A,4155.9123,N,02520.8025,E,0.13,305.24,270418,,,A*62

04/27/2018,14:44:23,28 CPM,0.76 uSV,5051 mV
$GPRMC,113624.000,A,4155.9120,N,02520.8035,E,0.29,305.24,270418,,,A*6A

04/27/2018,14:45:23,20 CPM,0.76 uSV,5028 mV
$GPRMC,113724.000,A,4155.9121,N,02520.8040,E,0.09,305.24,270418,,,A*6A

04/27/2018,14:46:23,17 CPM,0.76 uSV,5028 mV
$GPRMC,113824.000,A,4155.9127,N,02520.8032,E,0.36,305.24,270418,,,A*6A

04/27/2018,14:47:23,14 CPM,0.76 uSV,5028 mV
$GPRMC,113924.000,A,4155.9120,N,02520.8020,E,0.14,305.24,270418,,,A*6F

04/27/2018,14:48:23,18 CPM,0.76 uSV,5028 mV
$GPRMC,114024.000,A,4155.9122,N,02520.8014,E,0.16,305.24,270418,,,A*66

04/27/2018,14:49:23,19 CPM,0.76 uSV,5028 mV
$GPRMC,114124.000,A,4155.9133,N,02520.8014,E,0.19,305.24,270418,,,A*68

04/27/2018,14:50:23,16 CPM,0.77 uSV,5028 mV
$GPRMC,114224.000,A,4155.9138,N,02520.8008,E,0.16,305.24,270418,,,A*62

04/27/2018,14:51:23,15 CPM,0.77 uSV,5028 mV
$GPRMC,114324.000,A,4155.9118,N,02520.8024,E,0.10,305.24,270418,,,A*69

04/27/2018,14:52:23,20 CPM,0.77 uSV,5028 mV
$GPRMC,114424.000,A,4155.9142,N,02520.8036,E,0.10,305.24,270418,,,A*62

04/27/2018,14:53:23,21 CPM,0.77 uSV,5028 mV
$GPRMC,114524.000,A,4155.9152,N,02520.8032,E,0.33,305.24,270418,,,A*67

04/27/2018,14:54:23,8 CPM,0.77 uSV,5051 mV
$GPRMC,114624.000,A,4155.9135,N,02520.8062,E,0.09,145.81,270418,,,A*60

04/27/2018,14:55:23,21 CPM,0.77 uSV,5051 mV
$GPRMC,114724.000,A,4155.9137,N,02520.8057,E,0.20,145.81,270418,,,A*6E

04/27/2018,14:56:23,13 CPM,0.77 uSV,5028 mV
$GPRMC,114824.000,A,4155.9115,N,02520.8076,E,0.06,145.81,270418,,,A*66

04/27/2018,14:57:23,22 CPM,0.78 uSV,5028 mV
$GPRMC,114924.000,A,4155.9107,N,02520.8084,E,0.23,145.81,270418,,,A*6E

04/27/2018,14:58:23,10 CPM,0.78 uSV,5028 mV
$GPRMC,115024.000,A,4155.9115,N,02520.8063,E,0.34,145.81,270418,,,A*6A

04/27/2018,14:59:23,25 CPM,0.78 uSV,5028 mV
$GPRMC,115124.000,A,4155.9125,N,02520.8055,E,0.28,145.81,270418,,,A*60

04/27/2018,15:00:23,16 CPM,0.78 uSV,5028 mV
$GPRMC,115224.000,A,4155.9126,N,02520.8030,E,0.04,145.81,270418,,,A*6D

04/27/2018,15:01:23,22 CPM,0.78 uSV,5028 mV
$GPRMC,115324.000,A,4155.9129,N,02520.8031,E,0.07,145.81,270418,,,A*61

04/27/2018,15:02:23,14 CPM,0.79 uSV,5051 mV
$GPRMC,115424.000,A,4155.9133,N,02520.8035,E,0.25,145.81,270418,,,A*69

04/27/2018,15:03:23,18 CPM,0.79 uSV,5028 mV
$GPRMC,115524.000,A,4155.9122,N,02520.8036,E,0.09,145.81,270418,,,A*65

04/27/2018,15:04:23,22 CPM,0.79 uSV,5028 mV
$GPRMC,115624.000,A,4155.9143,N,02520.8035,E,0.09,145.81,270418,,,A*62

04/27/2018,15:05:23,12 CPM,0.79 uSV,5028 mV
$GPRMC,115724.000,A,4155.9130,N,02520.8048,E,0.09,145.81,270418,,,A*6D

04/27/2018,15:06:23,20 CPM,0.79 uSV,5028 mV
$GPRMC,115824.000,A,4155.9132,N,02520.8048,E,0.09,145.81,270418,,,A*60

04/27/2018,15:07:23,21 CPM,0.79 uSV,5028 mV
$GPRMC,115924.000,A,4155.9148,N,02520.8050,E,0.26,145.81,270418,,,A*68

04/27/2018,15:08:23,10 CPM,0.79 uSV,5028 mV
$GPRMC,120024.000,A,4155.9133,N,02520.8057,E,0.23,145.81,270418,,,A*69

04/27/2018,15:09:23,22 CPM,0.80 uSV,5028 mV
$GPRMC,120124.000,A,4155.9159,N,02520.8044,E,0.52,262.35,270418,,,A*69

04/27/2018,15:10:23,13 CPM,0.80 uSV,5028 mV
$GPRMC,120224.000,A,4155.9146,N,02520.8015,E,0.36,243.92,270418,,,A*6C

04/27/2018,15:11:23,21 CPM,0.80 uSV,5028 mV
$GPRMC,120324.000,A,4155.9143,N,02520.8041,E,0.07,243.92,270418,,,A*6B

04/27/2018,15:12:23,15 CPM,0.80 uSV,5028 mV
$GPRMC,120424.000,A,4155.9127,N,02520.8039,E,0.13,243.92,270418,,,A*64

04/27/2018,15:13:23,17 CPM,0.80 uSV,5028 mV
$GPRMC,120524.000,A,4155.9138,N,02520.8048,E,0.30,243.92,270418,,,A*6C

04/27/2018,15:14:23,18 CPM,0.81 uSV,5028 mV
$GPRMC,120624.000,A,4155.9147,N,02520.8041,E,0.23,243.92,270418,,,A*6C

04/27/2018,15:15:23,21 CPM,0.81 uSV,5028 mV
$GPRMC,120724.000,A,4155.9130,N,02520.8022,E,0.25,243.92,270418,,,A*6E

04/27/2018,15:16:23,13 CPM,0.81 uSV,5028 mV
$GPRMC,120824.000,A,4155.9134,N,02520.8020,E,0.15,243.92,270418,,,A*64

04/27/2018,15:17:23,13 CPM,0.81 uSV,5028 mV
$GPRMC,120924.000,A,4155.9168,N,02520.8064,E,0.60,204.67,270418,,,A*67

04/27/2018,15:18:23,24 CPM,0.81 uSV,5028 mV
$GPRMC,121024.000,A,4155.9128,N,02520.8059,E,0.19,208.02,270418,,,A*64

04/27/2018,15:19:23,14 CPM,0.81 uSV,5028 mV
$GPRMC,121124.000,A,4155.9149,N,02520.8045,E,0.13,208.02,270418,,,A*65

04/27/2018,15:20:23,15 CPM,0.81 uSV,5028 mV
$GPRMC,121224.000,A,4155.9153,N,02520.8044,E,0.06,25.03,270418,,,A*54

04/27/2018,15:21:23,10 CPM,0.82 uSV,5028 mV
$GPRMC,121324.000,A,4155.9141,N,02520.8042,E,0.26,25.03,270418,,,A*52

04/27/2018,15:22:23,15 CPM,0.82 uSV,5028 mV
$GPRMC,121424.000,A,4155.9129,N,02520.8036,E,0.18,25.03,270418,,,A*55

04/27/2018,15:23:23,19 CPM,0.82 uSV,5028 mV
$GPRMC,121524.000,A,4155.9133,N,02520.8040,E,0.38,25.03,270418,,,A*5C

04/27/2018,15:24:23,17 CPM,0.82 uSV,5051 mV
$GPRMC,121624.000,A,4155.9117,N,02520.8038,E,0.11,25.03,270418,,,A*5D

04/27/2018,15:25:23,24 CPM,0.82 uSV,5028 mV
$GPRMC,121724.000,A,4155.9113,N,02520.8011,E,0.40,25.03,270418,,,A*57

04/27/2018,15:26:23,12 CPM,0.82 uSV,5028 mV
$GPRMC,121824.000,A,4155.9098,N,02520.8031,E,0.12,25.03,270418,,,A*5F

04/27/2018,15:27:23,17 CPM,0.83 uSV,5028 mV
$GPRMC,121924.000,A,4155.9082,N,02520.8056,E,0.33,172.04,270418,,,A*63

04/27/2018,15:28:23,19 CPM,0.83 uSV,5028 mV
$GPRMC,122024.000,A,4155.9080,N,02520.8067,E,0.35,167.28,270418,,,A*65

04/27/2018,15:29:23,14 CPM,0.83 uSV,5028 mV
$GPRMC,122124.000,A,4155.9115,N,02520.8062,E,0.14,167.28,270418,,,A*6F

04/27/2018,15:30:23,18 CPM,0.83 uSV,5028 mV
$GPRMC,122224.000,A,4155.9140,N,02520.8035,E,0.15,167.28,270418,,,A*6F

04/27/2018,15:31:23,19 CPM,0.83 uSV,5028 mV
$GPRMC,122324.000,A,4155.9128,N,02520.8049,E,0.18,167.28,270418,,,A*66

04/27/2018,15:32:23,17 CPM,0.83 uSV,5028 mV
$GPRMC,122424.000,A,4155.9099,N,02520.8047,E,0.20,167.28,270418,,,A*6F

04/27/2018,15:33:23,16 CPM,0.84 uSV,5028 mV
$GPRMC,122524.000,A,4155.9100,N,02520.8039,E,0.01,167.28,270418,,,A*65

04/27/2018,15:34:23,23 CPM,0.84 uSV,5028 mV
$GPRMC,122624.000,A,4155.9110,N,02520.8035,E,0.34,167.28,270418,,,A*6D

04/27/2018,15:35:23,23 CPM,0.84 uSV,5051 mV
$GPRMC,122724.000,A,4155.9110,N,02520.8038,E,0.04,167.28,270418,,,A*62

04/27/2018,15:36:23,22 CPM,0.84 uSV,5028 mV
$GPRMC,122824.000,A,4155.9108,N,02520.8049,E,0.21,167.28,270418,,,A*65

04/27/2018,15:37:23,11 CPM,0.84 uSV,5028 mV
$GPRMC,122924.000,A,4155.9094,N,02520.8069,E,0.25,167.28,270418,,,A*66

04/27/2018,15:38:23,17 CPM,0.84 uSV,5028 mV
$GPRMC,123024.000,A,4155.9106,N,02520.8074,E,0.40,167.28,270418,,,A*6B

04/27/2018,15:39:23,10 CPM,0.85 uSV,5051 mV
$GPRMC,123124.000,A,4155.9114,N,02520.8036,E,0.29,167.28,270418,,,A*60

04/27/2018,15:40:23,24 CPM,0.85 uSV,5028 mV
$GPRMC,123224.000,A,4155.9126,N,02520.8043,E,0.20,11.87,270418,,,A*5C

04/27/2018,15:41:23,17 CPM,0.85 uSV,5028 mV
$GPRMC,123324.000,A,4155.9146,N,02520.8075,E,0.17,300.12,270418,,,A*65

04/27/2018,15:42:23,13 CPM,0.85 uSV,5028 mV
$GPRMC,123424.000,A,4155.9130,N,02520.8051,E,0.51,15.99,270418,,,A*53

04/27/2018,15:43:23,21 CPM,0.85 uSV,5028 mV
$GPRMC,123524.000,A,4155.9102,N,02520.8071,E,0.76,171.43,270418,,,A*60

04/27/2018,15:44:23,17 CPM,0.85 uSV,5028 mV
$GPRMC,123624.000,A,4155.9124,N,02520.8035,E,0.28,20.57,270418,,,A*5C

04/27/2018,15:45:23,9 CPM,0.85 uSV,5028 mV
$GPRMC,123724.000,A,4155.9088,N,02520.8090,E,0.45,149.16,270418,,,A*65

04/27/2018,15:46:23,17 CPM,0.86 uSV,5028 mV
$GPRMC,123824.000,A,4155.9095,N,02520.8058,E,1.00,203.85,270418,,,A*65

04/27/2018,15:47:23,11 CPM,0.86 uSV,5028 mV
$GPRMC,123924.000,A,4155.9095,N,02520.8047,E,0.15,139.67,270418,,,A*69

04/27/2018,15:48:23,19 CPM,0.86 uSV,5051 mV
$GPRMC,124024.000,A,4155.9095,N,02520.8061,E,0.18,169.20,270418,,,A*68

04/27/2018,15:49:23,12 CPM,0.86 uSV,5028 mV
$GPRMC,124124.000,A,4155.9102,N,02520.8062,E,0.19,343.78,270418,,,A*63

04/27/2018,15:50:23,18 CPM,0.86 uSV,5028 mV
$GPRMC,124224.000,A,4155.9111,N,02520.8046,E,0.18,343.78,270418,,,A*65

04/27/2018,15:51:23,15 CPM,0.86 uSV,5051 mV
$GPRMC,124324.000,A,4155.9109,N,02520.8044,E,0.11,343.78,270418,,,A*66

04/27/2018,15:52:23,13 CPM,0.86 uSV,5028 mV
$GPRMC,124424.000,A,4155.9112,N,02520.8023,E,0.05,343.78,270418,,,A*6F

04/27/2018,15:53:23,13 CPM,0.87 uSV,5051 mV
$GPRMC,124524.000,A,4155.9120,N,02520.8034,E,0.09,343.78,270418,,,A*65

04/27/2018,15:54:23,13 CPM,0.87 uSV,5051 mV
$GPRMC,124624.000,A,4155.9131,N,02520.8030,E,0.20,343.78,270418,,,A*69

04/27/2018,15:55:23,16 CPM,0.87 uSV,5028 mV
$GPRMC,124724.000,A,4155.9142,N,02520.8010,E,0.32,343.78,270418,,,A*6D

04/27/2018,15:56:23,16 CPM,0.87 uSV,5028 mV
$GPRMC,124824.000,A,4155.9138,N,02520.8025,E,0.27,343.78,270418,,,A*6D

04/27/2018,15:57:23,16 CPM,0.87 uSV,5051 mV
$GPRMC,124924.000,A,4155.9131,N,02520.8025,E,0.09,343.78,270418,,,A*69

04/27/2018,15:58:23,16 CPM,0.87 uSV,5028 mV
$GPRMC,125024.000,A,4155.9108,N,02520.8025,E,0.15,355.09,270418,,,A*67

04/27/2018,15:59:23,15 CPM,0.87 uSV,5051 mV
$GPRMC,125124.000,A,4155.9111,N,02520.8013,E,0.17,355.09,270418,,,A*69

04/27/2018,16:00:23,23 CPM,0.88 uSV,5028 mV
$GPRMC,125224.000,A,4155.9086,N,02520.8017,E,0.09,355.09,270418,,,A*6E

04/27/2018,16:01:23,17 CPM,0.88 uSV,5051 mV
$GPRMC,125324.000,A,4155.9103,N,02520.8015,E,0.26,355.09,270418,,,A*6C

04/27/2018,16:02:23,17 CPM,0.88 uSV,5028 mV
$GPRMC,125424.000,A,4155.9102,N,02520.8034,E,0.26,355.09,270418,,,A*69

04/27/2018,16:03:23,20 CPM,0.88 uSV,5051 mV
$GPRMC,125524.000,A,4155.9120,N,02520.8034,E,0.11,355.09,270418,,,A*6C

04/27/2018,16:04:23,23 CPM,0.88 uSV,5051 mV
$GPRMC,125624.000,A,4155.9127,N,02520.8019,E,0.13,355.09,270418,,,A*65

04/27/2018,16:05:23,22 CPM,0.89 uSV,5051 mV
$GPRMC,125724.000,A,4155.9129,N,02520.8026,E,0.69,162.92,270418,,,A*6F

04/27/2018,16:06:23,28 CPM,0.89 uSV,5028 mV
$GPRMC,125824.000,A,4155.9110,N,02520.8056,E,0.36,11.06,270418,,,A*5F

04/27/2018,16:07:23,27 CPM,0.89 uSV,5028 mV
$GPRMC,125924.000,A,4155.9112,N,02520.8057,E,0.58,11.06,270418,,,A*55

04/27/2018,16:08:23,17 CPM,0.89 uSV,5028 mV
$GPRMC,130024.000,A,4155.9123,N,02520.8036,E,0.69,345.61,270418,,,A*6C

04/27/2018,16:09:23,22 CPM,0.90 uSV,5028 mV
$GPRMC,130124.000,A,4155.9137,N,02520.8035,E,0.31,175.42,270418,,,A*66

04/27/2018,16:10:23,20 CPM,0.90 uSV,5028 mV
$GPRMC,130224.000,A,4155.9184,N,02520.8001,E,0.96,329.46,270418,,,A*68

04/27/2018,16:11:23,12 CPM,0.90 uSV,5028 mV
$GPRMC,130324.000,A,4155.9163,N,02520.8023,E,0.44,138.05,270418,,,A*6A

04/27/2018,16:12:23,16 CPM,0.90 uSV,5028 mV
$GPRMC,130424.000,A,4155.9104,N,02520.8058,E,0.49,158.25,270418,,,A*69

04/27/2018,16:13:23,19 CPM,0.90 uSV,5028 mV
$GPRMC,130524.000,A,4155.9110,N,02520.8062,E,0.28,158.25,270418,,,A*63

04/27/2018,16:14:23,16 CPM,0.90 uSV,5028 mV
$GPRMC,130624.000,A,4155.9142,N,02520.8043,E,0.20,314.77,270418,,,A*61

04/27/2018,16:15:23,20 CPM,0.91 uSV,5051 mV
$GPRMC,130724.000,A,4155.9130,N,02520.8057,E,0.20,314.77,270418,,,A*60

04/27/2018,16:16:23,14 CPM,0.91 uSV,5051 mV
$GPRMC,130824.000,A,4155.9127,N,02520.8061,E,0.21,314.77,270418,,,A*6D
